<?xml version="1.0"?>
<markers><marker nummer="2" name="De Berk" address="Barger-Compascuum" lat="52.754868" lng="7.030527" type="Stellingmolen" foto1="drenthe/2DeBerkBrgrCmpscm-1.jpg"/><marker nummer="3" name="De Arend" address="Coevorden" lat="52.659756" lng="6.724702" type="Stellingmolen" foto1="drenthe/3_1.jpg"/><marker nummer="4" name="De Bente" address="Dalen" lat="52.688068" lng="6.751523" type="Stellingmolen" foto1="drenthe/4_1.png"/><marker nummer="5" name="Jan Pol" address="Dalen" lat="52.700768" lng="6.754537" type="Stellingmolen" foto1="drenthe/5_1.png"/><marker nummer="7" name="De Wieker Meule" address="De Wijk" lat="52.672646" lng="6.287159" type="Stellingmolen" foto1="drenthe/7_1.jpg"/><marker nummer="8" name="De Vlijt" address="Diever" lat="52.851986" lng="6.313772" type="Stellingmolen" foto1="drenthe/8a.jpg"/><marker nummer="9" name="Grenszicht" address="Emmer-Compascuum" lat="52.821293" lng="7.061361" type="Stellingmolen" foto1="drenthe/9_1.jpg"/><marker nummer="10" name="De Heidebloem" address="Erica" lat="52.708897" lng="6.926617" type="Stellingmolen" foto1="drenthe/HeidebloemErica-3.jpg"/><marker nummer="11" name="De Juffer" address="Gasselternijveen" lat="52.985703" lng="6.837108" type="Stellingmolen" foto1="drenthe/11a.jpg"/><marker nummer="12" name="Hazewind" address="Gieten" lat="53.006584" lng="6.762248" type="Stellingmolen" foto1="drenthe/12-1304411805-4b.jpg"/><marker nummer="13" name="De Eendracht" address="Gieterveen" lat="53.027802" lng="6.842969" type="Stellingmolen" foto1="drenthe/13EendrachtGtrvn-1.jpg"/><marker nummer="15" name="(stellingmolen)" address="Havelte" lat="52.776482" lng="6.235955" type="Stellingmolen" foto1="drenthe/15=1293043352-1.jpg"/><marker nummer="16" name="De Zwaluw" address="Hoogeveen" lat="52.725327" lng="6.482353" type="Stellingmolen" foto1="drenthe/16_1.png"/><marker nummer="18" name="De Weert" address="Meppel" lat="52.693470" lng="6.186113" type="Stellingmolen" foto1="drenthe/18DeWeertMeppel-1.jpg"/><marker nummer="20" name="De Sterrenberg" address="Nijeveen" lat="52.732510" lng="6.168524" type="Stellingmolen" foto1="drenthe/1384853696-2.jpg"/><marker nummer="22" name="De Hoop" address="Norg" lat="53.062431" lng="6.459099" type="Stellingmolen" foto1="drenthe/22DeHoopNrg-1.jpg"/><marker nummer="23" name="Noordenveld" address="Norg" lat="53.067593" lng="6.457734" type="Stellingmolen" foto1="drenthe/23=1312394586-1-gepimpt.jpg"/><marker nummer="25" name="Paiser Meul" address="Peize" lat="53.148304" lng="6.492090" type="Stellingmolen" foto1="drenthe/25_1.jpg"/><marker nummer="26" name="Woldzigt" address="Roderwolde" lat="53.168983" lng="6.474149" type="Stellingmolen" foto1="drenthe/26_1.jpg"/><marker nummer="29" name="De Hoop" address="Sleen" lat="52.771957" lng="6.800388" type="Stellingmolen" foto1="drenthe/29_1.jpg"/><marker nummer="30" name="Nooitgedacht" address="Veenoord" lat="52.717339" lng="6.846629" type="Stellingmolen" foto1="drenthe/30_1.png"/><marker nummer="31" name="(stellingmolen)" address="Vledder" lat="52.859524" lng="6.215339" type="Stellingmolen" foto1="drenthe/31a.jpg"/><marker nummer="32" name="De Hoop" address="Wachtum" lat="52.723564" lng="6.747387" type="Stellingmolen" foto1="drenthe/32DeHoopWchtm-2.jpg"/><marker nummer="36" name="Zeldenrust" address="Zuidbarge" lat="52.749435" lng="6.908962" type="Stellingmolen" foto1="drenthe/36_1.png"/><marker nummer="37" name="De Wachter" address="Zuidlaren" lat="53.099377" lng="6.695847" type="Stellingmolen" foto1="drenthe/37aa.jpg"/><marker nummer="41" name="De Eendracht" address="Anjum" lat="53.373970" lng="6.127996" type="Stellingmolen" foto1="friesland/41_2.jpg"/><marker nummer="44" name="De Zwaluw" address="Burdaard (Birdaard) " lat="53.295841" lng="5.881483" type="Stellingmolen" foto1="/db-44=zwaluw-rb.jpg"/><marker nummer="55" name="De Mars" address="De Blesse" lat="52.842949" lng="6.038979" type="Stellingmolen" foto1="friesland/55_01.png"/><marker nummer="57" name="De Hoop" address="Dokkum" lat="53.322739" lng="5.997947" type="Stellingmolen" foto1="friesland/57_1.jpg"/><marker nummer="59" name="Zeldenrust" address="Dokkum" lat="53.324436" lng="5.994414" type="Stellingmolen" foto1="/59ZeldenrustDkkm-2.jpg"/><marker nummer="68" name="Formerumermolen (Koffiemolen)" address="Formerum (Terschelling)" lat="53.389065" lng="5.304542" type="Stellingmolen" foto1="friesland/68_1.jpg"/><marker nummer="80" name="Welgelegen / Tjepkema's molen" address="Heerenveen" lat="52.963535" lng="5.918695" type="Stellingmolen" foto1="/80a-gepimpt.jpg"/><marker nummer="82" name="De Verwachting" address="Hollum (Ameland)" lat="53.440002" lng="5.633420" type="Stellingmolen" foto1="friesland/82_1.png"/><marker nummer="83" name="De Hoop" address="Holwerd" lat="53.364395" lng="5.902023" type="Stellingmolen" foto1="friesland/83_1.png"/><marker nummer="86" name="De Rat" address="IJlst" lat="53.012726" lng="5.626899" type="Stellingmolen" foto1="friesland/86_1.png"/><marker nummer="87" name="De Groene Molen" address="Joure" lat="52.973740" lng="5.786283" type="Stellingmolen" foto1="/87-1249333560-1b2.jpg"/><marker nummer="88" name="Penninga's Molen" address="Joure" lat="52.972801" lng="5.797320" type="Stellingmolen" foto1="friesland/88_1.png"/><marker nummer="92" name="De Vlijt / Vm. Molen 't Op" address="Koudum" lat="52.912216" lng="5.442163" type="Stellingmolen" foto1="friesland/92a.jpg"/><marker nummer="93" name="Sweachmermolen" address="Langweer" lat="52.960159" lng="5.732078" type="Stellingmolen" foto1="/93SweachmermolenLngwr-1.jpg"/><marker nummer="97" name="De Weyert" address="Makkinga" lat="52.982136" lng="6.217016" type="Stellingmolen" foto1="friesland/97_1.png"/><marker nummer="105" name="Ropta" address="Metslawier" lat="53.369217" lng="6.070329" type="Stellingmolen" foto1="friesland/105f.jpg"/><marker nummer="107" name="Munnekezijlster Molen / Rust Roest" address="Munnekezijl" lat="53.304043" lng="6.274239" type="Stellingmolen" foto1="/107RustRoestMnnkzijl-3c.jpg"/><marker nummer="112" name="Windlust" address="Noordwolde" lat="52.891922" lng="6.141911" type="Stellingmolen" foto1="friesland/112__1.jpg"/><marker nummer="119" name="De Hond" address="Paesens" lat="53.398052" lng="6.087204" type="Stellingmolen" foto1="friesland/119_1.png"/><marker nummer="125" name="De Korenaar" address="Sexbierum" lat="53.222229" lng="5.489031" type="Stellingmolen" foto1="friesland/125a.jpg"/><marker nummer="126" name="De Korenmolen / De Kaai" address="Sleat / Sloten" lat="52.893524" lng="5.646631" type="Stellingmolen" foto1="/126DeKaaiSloten.jpg"/><marker nummer="129" name="De Hoop" address="Stiens" lat="53.257996" lng="5.759479" type="Stellingmolen" foto1="friesland/129a.jpg"/><marker nummer="132" name="De Hoop" address="Sumar (Suameer)" lat="53.178951" lng="5.997532" type="Stellingmolen" foto1="friesland/132aa.jpg"/><marker nummer="133" name="Koartw&#xE2;ld / Feanstermoune" address="Surhuisterveen" lat="53.184109" lng="6.183084" type="Stellingmolen" foto1="friesland/133_1.jpg"/><marker nummer="143" name="Vrouwbuurstermolen" address="Vrouwenparochie" lat="53.280663" lng="5.721459" type="Stellingmolen" foto1="/db-143-vrouwbuurter-rb.jpg"/><marker nummer="155" name="De Onderneming" address="Witmarsum" lat="53.099033" lng="5.468736" type="Stellingmolen" foto1="friesland/155_1.png"/><marker nummer="158" name="Windlust" address="Wolvega" lat="52.873825" lng="5.993812" type="Stellingmolen" foto1="friesland/158_1.jpg"/><marker nummer="163" name="'t Lam" address="Woudsend" lat="52.943432" lng="5.626875" type="Stellingmolen" foto1="friesland/163_1.jpg"/><marker nummer="164" name="De Jager" address="Woudsend" lat="52.941654" lng="5.629364" type="Stellingmolen" foto1="friesland/164_1.jpg"/><marker nummer="166" name="De Drie Waaien" address="Afferden" lat="51.884598" lng="5.645363" type="Stellingmolen" foto1="gelderland/166DeDrieWaaienAffrdn-4.jpg"/><marker nummer="169" name="De Hoop" address="Nijkerk-Appel" lat="52.197243" lng="5.525861" type="Stellingmolen" foto1="gelderland/169-1339702258-1.jpg"/><marker nummer="174" name="De Kroon / Klarendalse Molen" address="Arnhem" lat="51.987671" lng="5.917858" type="Stellingmolen" foto1="gelderland/174.jpg"/><marker nummer="176" name="Het Fortuin" address="Arnhem" lat="52.009422" lng="5.911489" type="Stellingmolen" foto1="gelderland/176HetFortuynNOM-1.jpg"/><marker nummer="184" name="De Wielewaal" address="Beneden-Leeuwen" lat="51.881878" lng="5.511322" type="Stellingmolen" foto1="gelderland/184_1.png"/><marker nummer="193" name="De Prins van Oranje" address="Buren" lat="51.913326" lng="5.335403" type="Stellingmolen" foto1="gelderland/193h.jpg"/><marker nummer="194" name="De Hoop" address="Culemborg" lat="51.955750" lng="5.224124" type="Stellingmolen" foto1="gelderland/194DeHoopCulemborg-1.jpg"/><marker nummer="197" name="De Vlinder" address="Deil" lat="51.887520" lng="5.225605" type="Stellingmolen" foto1="gelderland/197__1.jpg"/><marker nummer="201" name="Benninkmolen / Velsmolen" address="Doetinchem" lat="51.966827" lng="6.325904" type="Stellingmolen" foto1="gelderland/201BenninkmolenDoetinchem-1.jpg"/><marker nummer="202" name="De Walmolen" address="Doetinchem" lat="51.963230" lng="6.288492" type="Stellingmolen" foto1="gelderland/202_1.jpg"/><marker nummer="212" name="De Hoop" address="Garderen" lat="52.231316" lng="5.716989" type="Stellingmolen" foto1="gelderland/212DeHoopGarderen-1.jpg"/><marker nummer="213" name="De Ster" address="Geesteren" lat="52.136906" lng="6.522563" type="Stellingmolen" foto1="gelderland/213_1.jpg"/><marker nummer="216" name="De Hoop" address="Giesbeek" lat="51.995777" lng="6.067539" type="Stellingmolen" foto1="gelderland/216_1.jpg"/><marker nummer="218" name="De Blauwe Reiger" address="Haaften" lat="51.814003" lng="5.210250" type="Stellingmolen" foto1="gelderland/218=1321730267-rb.jpg"/><marker nummer="219" name="De Hoop" address="Harderwijk" lat="52.352127" lng="5.624538" type="Stellingmolen" foto1="gelderland/219-1311118396-3b.jpg"/><marker nummer="222" name="De Fortuin" address="Hattem" lat="52.475342" lng="6.066550" type="Stellingmolen" foto1="gelderland/222_1.png"/><marker nummer="229" name="De Maagd" address="Hulshorst" lat="52.361633" lng="5.734870" type="Stellingmolen" foto1="gelderland/229HulshorstDeMaagd-4.jpg"/><marker nummer="231" name="Op Hoop Van Beter" address="Ingen" lat="51.959930" lng="5.484128" type="Stellingmolen" foto1="gelderland/231OpHoopvanBeter-Ingen-1.jpg"/><marker nummer="233" name="Sara Catharina" address="Kerkdriel" lat="51.763638" lng="5.337371" type="Stellingmolen" foto1="gelderland/233SaraCatharinaKrkdrl-a.jpg"/><marker nummer="234" name="De Hoop" address="Klarenbeek" lat="52.168999" lng="6.068163" type="Stellingmolen" foto1="gelderland/234DeHoopKlrnbk-5.jpg"/><marker nummer="252" name="De Hollandsche Molen" address="Neede" lat="52.141762" lng="6.609657" type="Stellingmolen" foto1="gelderland/252DeHollandscheMolenNeede-1.jpg"/><marker nummer="254" name="Sint Annamolen" address="Nijmegen" lat="51.828602" lng="5.856317" type="Stellingmolen" foto1="gelderland/254__1.jpg"/><marker nummer="255" name="De Witte Molen / Looimolen" address="Nijmegen" lat="51.836739" lng="5.842719" type="Stellingmolen" foto1="gelderland/255_1.jpg"/><marker nummer="257" name="Werklust" address="Oene" lat="52.347980" lng="6.052035" type="Stellingmolen" foto1="gelderland/257WerklustOene-1.jpg"/><marker nummer="258" name="De Hoop" address="Oldebroek" lat="52.454006" lng="5.919135" type="Stellingmolen" foto1="gelderland/258DeHoopOldebroek-a.jpg"/><marker nummer="259" name="De Tijd" address="Oostendorp" lat="52.442959" lng="5.855612" type="Stellingmolen" foto1="gelderland/259DeTijdOostendorp-6.jpg"/><marker nummer="260" name="De Hoop" address="Oud-Zevenaar" lat="51.915836" lng="6.095064" type="Stellingmolen" foto1="gelderland/260_1.jpg"/><marker nummer="262" name="Wilpermolen" address="Wilp-Posterenk" lat="52.213219" lng="6.117710" type="Stellingmolen" foto1="gelderland/wilper.jpg"/><marker nummer="263" name="Het Hert" address="Putten" lat="52.257030" lng="5.604873" type="Stellingmolen" foto1="gelderland/263HetHertPutten-4.jpg"/><marker nummer="267" name="Agneta" address="Ruurlo" lat="52.089066" lng="6.453378" type="Stellingmolen" foto1="gelderland/267AgnetaRuurlo-1.jpg"/><marker nummer="273" name="Havekes M&#xF6;lle (vh. De Volharding)" address="Twello" lat="52.233658" lng="6.092750" type="Stellingmolen" foto1="gelderland/273HavekesMolleTwello-4.jpg"/><marker nummer="277" name="Daams' molen" address="Vaassen" lat="52.288326" lng="5.970633" type="Stellingmolen" foto1="gelderland/277DaamsMolenVssn-1.jpg"/><marker nummer="279" name="De Bol" address="Varik" lat="51.829243" lng="5.376699" type="Stellingmolen" foto1="gelderland/279DeBolVarik-1.jpg"/><marker nummer="280" name="De Engel" address="Varsseveld" lat="51.945999" lng="6.466385" type="Stellingmolen" foto1="gelderland/280DeEngelVrssvld-5.jpg"/><marker nummer="281" name="M&#xF6;lle van Bats" address="Veessen" lat="52.375343" lng="6.091127" type="Stellingmolen" foto1="gelderland/281_1.png"/><marker nummer="283" name="De Zwaan" address="Voorst" lat="52.167816" lng="6.135677" type="Stellingmolen" foto1="gelderland/283aa.jpg"/><marker nummer="285" name="De Hoop" address="Vorden" lat="52.105080" lng="6.306854" type="Stellingmolen" foto1="gelderland/285_1.jpg"/><marker nummer="286" name="Hackfortsche Molen / Op 't Hoge" address="Vorden" lat="52.103798" lng="6.302872" type="Stellingmolen" foto1="gelderland/286_1.jpg"/><marker nummer="287" name="De Vier Winden" address="Vragender" lat="51.985874" lng="6.610485" type="Stellingmolen" foto1="gelderland/287DeVierWindenVrgndr-1.jpg"/><marker nummer="291" name="De Vlijt" address="Wageningen" lat="51.971096" lng="5.671153" type="Stellingmolen" foto1="gelderland/291b.jpg"/><marker nummer="292" name="De Walderveense Molen" address="Walderveen" lat="52.112587" lng="5.553438" type="Stellingmolen" foto1="gelderland/292Walderveen-1.jpg"/><marker nummer="296" name="Nooit Gedacht" address="Warnsveld" lat="52.140053" lng="6.221458" type="Stellingmolen" foto1="gelderland/296=warnsveld-rb.jpg"/><marker nummer="301" name="Venemansmolen / De Oude Molen" address="Winterswijk" lat="51.963566" lng="6.702615" type="Stellingmolen" foto1="gelderland/301VenemansmolenWntrswijk.jpg"/><marker nummer="309" name="De Hoop" address="Zuilichem" lat="51.807919" lng="5.133164" type="Stellingmolen" foto1="gelderland/309aa.jpg"/><marker nummer="310" name="De Zwiepse Molen" address="Lochem-Zwiep" lat="52.148479" lng="6.448835" type="Stellingmolen" foto1="gelderland/310_1.jpg"/><marker nummer="311" name="Aeolus" address="Adorp" lat="53.275528" lng="6.537384" type="Stellingmolen" foto1="groningen/311_1.jpg"/><marker nummer="313" name="Veldkamps Meul'n" address="Bellingwolde" lat="53.125813" lng="7.171578" type="Stellingmolen" foto1="groningen/313d.jpg"/><marker nummer="315" name="Adam" address="Delfzijl" lat="53.330673" lng="6.925763" type="Stellingmolen" foto1="groningen/315_1.png"/><marker nummer="316" name="De Jonge Hendrik" address="Den Andel" lat="53.393978" lng="6.509102" type="Stellingmolen" foto1="groningen/316_1.png"/><marker nummer="317" name="De Lelie" address="Eenrum" lat="53.365654" lng="6.458157" type="Stellingmolen" foto1="groningen/317_1.png"/><marker nummer="318" name="Eben Ha&#xEB;zer" address="Enumatil" lat="53.216198" lng="6.408476" type="Stellingmolen" foto1="groningen/318a.jpg"/><marker nummer="319" name="Aeolus" address="Farmsum" lat="53.319847" lng="6.929743" type="Stellingmolen" foto1="groningen/319ab.jpg"/><marker nummer="320" name="Joeswert" address="Feerwerd" lat="53.305157" lng="6.464739" type="Stellingmolen" foto1="groningen/320Frwrd-Joeswert.jpg"/><marker nummer="321" name="Udema's molen" address="Ganzedijk" lat="53.204639" lng="7.117050" type="Stellingmolen" foto1="groningen/321UdemasMolenGnzdijk-1.jpg"/><marker nummer="323" name="De Meeuw" address="Garnwerd" lat="53.304657" lng="6.493965" type="Stellingmolen" foto1="groningen/323Grnwrd-DeMeeuw-1.jpg"/><marker nummer="325" name="De Hoop" address="Garsthuizen" lat="53.369862" lng="6.722788" type="Stellingmolen" foto1="groningen/325_4.png"/><marker nummer="327" name="De Kievit" address="Grijpskerk" lat="53.264889" lng="6.302301" type="Stellingmolen" foto1="groningen/327_01.png"/><marker nummer="329" name="De Hoop" address="Haren" lat="53.173218" lng="6.601310" type="Stellingmolen" foto1="groningen/329DeHoopHaren-1.jpg"/><marker nummer="330" name="Stel's Meulen" address="Harkstede" lat="53.214218" lng="6.700041" type="Stellingmolen" foto1="groningen/330StelsMeulenHarkstede-1.jpg"/><marker nummer="332" name="Grote Geert" address="Kantens" lat="53.367290" lng="6.635163" type="Stellingmolen" foto1="groningen/332_1.png"/><marker nummer="337" name="De Stormvogel" address="Loppersum" lat="53.331932" lng="6.739626" type="Stellingmolen" foto1="groningen/337a.jpg"/><marker nummer="338" name="Hollands Welvaart" address="Mensingeweer" lat="53.351303" lng="6.465969" type="Stellingmolen" foto1="groningen/338ab.jpg"/><marker nummer="339" name="De Hoop" address="Middelstum" lat="53.350590" lng="6.642293" type="Stellingmolen" foto1="groningen/339MddlstmDeHoop-4.jpg"/><marker nummer="341" name="Nieberter molen" address="Niebert" lat="53.160271" lng="6.323592" type="Stellingmolen" foto1="groningen/341_1.png"/><marker nummer="344" name="De Zwaluw" address="Nieuwe Pekela" lat="53.049641" lng="6.940289" type="Stellingmolen" foto1="groningen/344-1301166902-1b.jpg"/><marker nummer="345" name="De Noordstar" address="Noordbroek" lat="53.200489" lng="6.871648" type="Stellingmolen" foto1="groningen/345NoordstarNoordbroek-1.jpg"/><marker nummer="348" name="Wilhelmina" address="Noorderhoogebrug" lat="53.242901" lng="6.568543" type="Stellingmolen" foto1="groningen/348WilhemninaNrdgbrg-1.jpg"/><marker nummer="349" name="Fortuna" address="Noordhorn" lat="53.258938" lng="6.395670" type="Stellingmolen" foto1="groningen/349-1306685518-1b.jpg"/><marker nummer="350" name="De Korenschoof" address="Noordlaren" lat="53.120438" lng="6.663797" type="Stellingmolen" foto1="groningen/350NrdLrnDeKorenschoof-1.jpg"/><marker nummer="351" name="Aeolus" address="Oldehove" lat="53.303108" lng="6.397288" type="Stellingmolen" foto1="groningen/351AeolusOldehove-1.jpg"/><marker nummer="352" name="De Leeuw" address="Oldehove" lat="53.304363" lng="6.395532" type="Stellingmolen" foto1="groningen/352DeLeeuwOldehove-1.jpg"/><marker nummer="356" name="De Onrust" address="Oude Pekela" lat="53.103912" lng="7.009509" type="Stellingmolen" foto1="groningen/356e.jpg"/><marker nummer="357" name="Windlust" address="Overschild" lat="53.282284" lng="6.784193" type="Stellingmolen" foto1="groningen/357_1.png"/><marker nummer="359" name="De Vier Winden" address="Pieterburen" lat="53.399529" lng="6.460429" type="Stellingmolen" foto1="groningen/359DeVierWindenPburen-1.jpg"/><marker nummer="364" name="Ceres" address="Spijk" lat="53.390221" lng="6.835863" type="Stellingmolen" foto1="groningen/364CeresSpijk-1.jpg"/><marker nummer="365" name="Bovenrijge" address="Ten Boer" lat="53.271927" lng="6.697734" type="Stellingmolen" foto1="groningen/365_1.png"/><marker nummer="367" name="Olle Widde" address="Ten Post" lat="53.299919" lng="6.726231" type="Stellingmolen" foto1="groningen/367OlleWiddeTnPst-1.jpg"/><marker nummer="369" name="Germania" address="Thesinge" lat="53.269039" lng="6.652617" type="Stellingmolen" foto1="groningen/369-1332783057-1.jpg"/><marker nummer="370" name="De Liefde" address="Uithuizen" lat="53.408802" lng="6.669753" type="Stellingmolen" foto1="groningen/370a.jpg"/><marker nummer="372" name="Eva" address="Usquert" lat="53.404182" lng="6.611002" type="Stellingmolen" foto1="groningen/372_1.png"/><marker nummer="373" name="Niemans Molen" address="Veelerveen" lat="53.059856" lng="7.124110" type="Stellingmolen" foto1="groningen/373a.jpg"/><marker nummer="374" name="De Onderneming" address="Vierhuizen" lat="53.360535" lng="6.290259" type="Stellingmolen" foto1="groningen/374_1.png"/><marker nummer="377" name="De Korenbloem" address="Vriescheloo" lat="53.068150" lng="7.112519" type="Stellingmolen" foto1="groningen/377w.jpg"/><marker nummer="379" name="(spinnenkop)" address="Wedderveer" lat="53.083977" lng="7.068158" type="Stellingmolen" foto1="groningen/379_1.png"/><marker nummer="381" name="Zeldenrust" address="Westerwijtwerd" lat="53.332504" lng="6.644783" type="Stellingmolen" foto1="groningen/381aa.jpg"/><marker nummer="382" name="De Wetsinger" address="Wetsinge" lat="53.300655" lng="6.532354" type="Stellingmolen" foto1="groningen/382_1.jpg"/><marker nummer="383" name="Molen Berg" address="Winschoten" lat="53.148647" lng="7.024444" type="Stellingmolen" foto1="groningen/383_1.jpg"/><marker nummer="384" name="Molen Dijkstra" address="Winschoten" lat="53.148041" lng="7.028039" type="Stellingmolen" foto1="groningen/winschoten_dijkstra.jpg"/><marker nummer="385" name="Molen Edens / De Volharding" address="Winschoten" lat="53.146652" lng="7.031514" type="Stellingmolen" foto1="groningen/385a[1].jpg"/><marker nummer="386" name="De Ster" address="Winsum" lat="53.331360" lng="6.514616" type="Stellingmolen" foto1="groningen/386DeSterWinsum-1.jpg"/><marker nummer="387" name="De Vriendschap" address="Winsum" lat="53.330776" lng="6.516297" type="Stellingmolen" foto1="groningen/387_1.jpg"/><marker nummer="388" name="Fram" address="Woltersum" lat="53.270191" lng="6.733478" type="Stellingmolen" foto1="groningen/388_1.png"/><marker nummer="389" name="Windlust" address="Zandeweer" lat="53.387505" lng="6.684796" type="Stellingmolen" foto1="groningen/389a.jpg"/><marker nummer="390" name="De Leeuw" address="Zeerijp" lat="53.347870" lng="6.762908" type="Stellingmolen" foto1="groningen/390DeLeeuwZrijp-1.jpg"/><marker nummer="394" name="De Zwaluw" address="Zuurdijk" lat="53.336849" lng="6.377076" type="Stellingmolen" foto1="groningen/394Zwaluw-staand.jpg"/><marker nummer="468" name="Hompesche Molen" address="Stevensweert" lat="51.120510" lng="5.836146" type="Stellingmolen" foto1="limburg/468_1.png"/><marker nummer="472" name="De Hoop" address="Swartbroek" lat="51.231632" lng="5.776013" type="Stellingmolen" foto1="limburg/472DeHoopSwartbroek-1.jpg"/><marker nummer="506" name="Nooit Gedagt" address="Budel" lat="51.269352" lng="5.581645" type="Stellingmolen" foto1="noordbrabant/506NooitGedagtBdl-2.jpg"/><marker nummer="511" name="Stella Polaris" address="Dieden" lat="51.819614" lng="5.614402" type="Stellingmolen" foto1="noordbrabant/511_1.png"/><marker nummer="513" name="Koningin Wilhelmina" address="Dongen" lat="51.635712" lng="4.930515" type="Stellingmolen" foto1="noordbrabant/513Kon.WilhelminaDongen-1.jpg"/><marker nummer="518" name="De Bisschopsmolen" address="Etten" lat="51.562706" lng="4.643231" type="Stellingmolen" foto1="noordbrabant/518_1.png"/><marker nummer="523" name="De Bijenkorf" address="Gemert" lat="51.563293" lng="5.679702" type="Stellingmolen" foto1="noordbrabant/523DeBijenkorfGmrt-1.jpg"/><marker nummer="538" name="Zeldenrust" address="Hooge Zwaluwe" lat="51.683350" lng="4.751060" type="Stellingmolen" foto1="noordbrabant/538_1.jpg"/><marker nummer="541" name="De Eendragt" address="Kaatsheuvel" lat="51.675030" lng="4.995162" type="Stellingmolen" foto1="noordbrabant/541_1.jpg"/><marker nummer="542" name="De Lelie" address="Leur" lat="51.588959" lng="4.654301" type="Stellingmolen" foto1="noordbrabant/542_1.jpg"/><marker nummer="547" name="(stellingmolen)" address="Katwijk-Linden" lat="51.750103" lng="5.850012" type="Stellingmolen" foto1="noordbrabant/547_1.png"/><marker nummer="555" name="Desir&#xE9; " address="Megen" lat="51.819790" lng="5.563611" type="Stellingmolen" foto1="noordbrabant/555a.jpg"/><marker nummer="564" name="Assumburg" address="Nieuw-Vossemeer" lat="51.579575" lng="4.212459" type="Stellingmolen" foto1="noordbrabant/564AssumburgNwVssmr.jpg"/><marker nummer="565" name="Emma" address="Nieuwkuijk" lat="51.689011" lng="5.178865" type="Stellingmolen" foto1="noordbrabant/565_1.jpg"/><marker nummer="570" name="Sint Jan" address="Oerle" lat="51.426609" lng="5.358185" type="Stellingmolen" foto1="noordbrabant/570_1.jpg"/><marker nummer="571" name="De Korenaar" address="Oirschot" lat="51.509666" lng="5.319859" type="Stellingmolen" foto1="noordbrabant/571_1.jpg"/><marker nummer="572" name="Onvermoeid / Kerkhovense Molen" address="Oisterwijk" lat="51.586216" lng="5.177447" type="Stellingmolen" foto1="noordbrabant/572_1.png"/><marker nummer="577" name="Nieuw Leven" address="Oss" lat="51.768211" lng="5.518803" type="Stellingmolen" foto1="noordbrabant/577_1.jpg"/><marker nummer="578" name="Zeldenrust / De Zwaluw" address="Oss" lat="51.765656" lng="5.520157" type="Stellingmolen" foto1="noordbrabant/578ZeldenrustOss-2.jpg"/><marker nummer="579" name="Sint Victor" address="Zeeland-Oventje" lat="51.680538" lng="5.680778" type="Stellingmolen" foto1="noordbrabant/579e.jpg"/><marker nummer="580" name="De Onvermoeide" address="Raamsdonksveer" lat="51.699165" lng="4.876700" type="Stellingmolen" foto1="noordbrabant/580_1.jpg"/><marker nummer="581" name="De Nijverheid / v.h. De Raaf" address="Ravenstein" lat="51.796635" lng="5.649932" type="Stellingmolen" foto1="noordbrabant/581DeNijverheidRvnstn-2.jpg"/><marker nummer="583" name="Luctor et Emergo" address="Rijkevoort" lat="51.658157" lng="5.885549" type="Stellingmolen" foto1="noordbrabant/583_1.jpg"/><marker nummer="585" name="De Twee Gebroeders" address="Roosendaal" lat="51.530506" lng="4.438575" type="Stellingmolen" foto1="noordbrabant/585_1.jpg"/><marker nummer="598" name="De Arend" address="Terheijden" lat="51.645782" lng="4.745115" type="Stellingmolen" foto1="noordbrabant/598_1.jpg"/><marker nummer="602" name="De Hoop" address="Veen" lat="51.782181" lng="5.104398" type="Stellingmolen" foto1="noordbrabant/602-1333543649-2.jpg"/><marker nummer="612" name="D'Orangemolen" address="Willemstad" lat="51.693604" lng="4.441593" type="Stellingmolen" foto1="noordbrabant/612a.jpg"/><marker nummer="613" name="Nooit Gedagt" address="Woudrichem" lat="51.815434" lng="5.004775" type="Stellingmolen" foto1="noordbrabant/613a.jpg"/><marker nummer="619" name="Fleur" address="Zevenbergen" lat="51.646118" lng="4.603861" type="Stellingmolen" foto1="noordbrabant/619FleurZevenbergen.jpg"/><marker nummer="621" name="De Leeuw" address="Aalsmeer" lat="52.268841" lng="4.746527" type="Stellingmolen" foto1="noordholland/621AalsmeerDeLeeuw-1.jpg"/><marker nummer="627" name="De Groot / Molen van Piet" address="Alkmaar" lat="52.629993" lng="4.741764" type="Stellingmolen" foto1="noordholland/627MolenvanPiet.jpg"/><marker nummer="631" name="De Dikkert" address="Amstelveen" lat="52.308243" lng="4.847429" type="Stellingmolen" foto1="noordholland/631DeDikkertAveen-II.jpg"/><marker nummer="632" name="D'Admiraal" address="Amsterdam-Buiksloot" lat="52.402542" lng="4.923529" type="Stellingmolen" foto1="noordholland/632dAdmiraalBuiksloot-1.jpg"/><marker nummer="635" name="De Bloem" address="Amsterdam" lat="52.384697" lng="4.860158" type="Stellingmolen" foto1="noordholland/amsterdam1.jpg"/><marker nummer="636" name="De Gooyer" address="Amsterdam" lat="52.366810" lng="4.926222" type="Stellingmolen" foto1="noordholland/626-degooijer-1.jpg"/><marker nummer="643" name="De Krijgsman" address="Oosterblokker" lat="52.670887" lng="5.099557" type="Stellingmolen" foto1="noordholland/643DeKrijgsmanOosterblokker-1.jpg"/><marker nummer="644" name="Ceres" address="Bovenkarspel" lat="52.695450" lng="5.251591" type="Stellingmolen" foto1="noordholland/644-1248248992-1b.jpg"/><marker nummer="665" name="Groenendaalse Molen" address="Heemstede" lat="52.341927" lng="4.617628" type="Stellingmolen" foto1="noordholland/665_1.jpg"/><marker nummer="675" name="Het Pink" address="Koog aan de Zaan" lat="52.466057" lng="4.808509" type="Stellingmolen" foto1="noordholland/675HetPinkKoogZ-zwarteborden.jpg"/><marker nummer="680" name="De Herder" address="Medemblik" lat="52.772320" lng="5.099454" type="Stellingmolen" foto1="noordholland/680DeHerderMedemblik-1.jpg"/><marker nummer="694" name="De Traanroeier" address="Oudeschild" lat="53.038605" lng="4.848463" type="Stellingmolen" foto1="noordholland/694_1.png"/><marker nummer="696" name="'t Roode Hert" address="Oudorp" lat="52.636711" lng="4.757782" type="Stellingmolen" foto1="noordholland/696RoodeHertAlkmaar.jpg"/><marker nummer="705" name="De Zandhaas" address="Santpoort" lat="52.427437" lng="4.641181" type="Stellingmolen" foto1="noordholland/705_1.png"/><marker nummer="736" name="'t Haantje" address="Weesp" lat="52.308071" lng="5.032977" type="Stellingmolen" foto1="noordholland/736_1.jpg"/><marker nummer="737" name="De Eendragt" address="Weesp" lat="52.303650" lng="5.050665" type="Stellingmolen" foto1="noordholland/737EendragtWeesp-1.jpg"/><marker nummer="738" name="De Vriendschap" address="Weesp" lat="52.304043" lng="5.049782" type="Stellingmolen" foto1="noordholland/NH165_1.jpg"/><marker nummer="739" name="De Hoop" address="Wervershoof" lat="52.724884" lng="5.150403" type="Stellingmolen" foto1="noordholland/739DeHoopWervershoof-staatsie.jpg"/><marker nummer="740" name="De Jonge Dirk" address="Westzaan" lat="52.463650" lng="4.783672" type="Stellingmolen" foto1="noordholland/740_1.jpg"/><marker nummer="741" name="De Schoolmeester" address="Westzaan" lat="52.467861" lng="4.786676" type="Stellingmolen" foto1="noordholland/741_1_DeSchoolmeester.jpg"/><marker nummer="742" name="Het Prinsenhof" address="Westzaan" lat="52.462498" lng="4.779818" type="Stellingmolen" foto1="noordholland/742_1.jpg"/><marker nummer="744" name="De Stofmolen" address="Wijdenes" lat="52.641457" lng="5.168448" type="Stellingmolen" foto1="noordholland/744-DSC7938MVweb-b.jpg"/><marker nummer="748" name="De Bonte Hen" address="Zaandam" lat="52.478050" lng="4.813327" type="Stellingmolen" foto1="noordholland/748-1250105365-1b.jpg"/><marker nummer="752" name="De Huisman" address="Zaandam" lat="52.473133" lng="4.816614" type="Stellingmolen" foto1="noordholland/752DeHuisman-Zaandam-1.jpg"/><marker nummer="753" name="De Kat" address="Zaandam" lat="52.475006" lng="4.817841" type="Stellingmolen" foto1="noordholland/753=katmolen-rb.jpg"/><marker nummer="754" name="De Ooievaar" address="Zaandam" lat="52.470600" lng="4.815087" type="Stellingmolen" foto1="noordholland/754DeOoievaar-staatsie-detail.jpg"/><marker nummer="755" name="De Zoeker" address="Zaandam" lat="52.476006" lng="4.817607" type="Stellingmolen" foto1="noordholland/755_1.jpg"/><marker nummer="756" name="De Bleeke Dood" address="Zaandijk" lat="52.471336" lng="4.811472" type="Stellingmolen" foto1="noordholland/756-1344370532-1.jpg"/><marker nummer="761" name="De Hoop" address="Almelo" lat="52.350601" lng="6.655833" type="Stellingmolen" foto1="overijssel/761-1328175424-1.jpg"/><marker nummer="763" name="De Star" address="Balkbrug" lat="52.599705" lng="6.401496" type="Stellingmolen" foto1="overijssel/763-1.jpg"/><marker nummer="765" name="De Westermolen" address="Dalfsen" lat="52.503368" lng="6.257226" type="Stellingmolen" foto1="overijssel/765-1337434036-1.jpg"/><marker nummer="769" name="Bolwerksmolen" address="Deventer" lat="52.246632" lng="6.154237" type="Stellingmolen" foto1="overijssel/769DeventerBolwerksmolen.jpg"/><marker nummer="770" name="De Hegeman" address="Holten-Dijkerhoek" lat="52.279797" lng="6.350752" type="Stellingmolen" foto1="overijssel/770-1255548447-1b.jpg"/><marker nummer="777" name="Braakmolen" address="Goor" lat="52.231098" lng="6.596725" type="Stellingmolen" foto1="overijssel/777-1255381003-4b.jpg"/><marker nummer="780" name="De Korenbloem" address="Haaksbergen" lat="52.159203" lng="6.747974" type="Stellingmolen" foto1="overijssel/780a.jpg"/><marker nummer="782" name="De Oelemolle" address="Hardenberg" lat="52.573940" lng="6.611081" type="Stellingmolen" foto1="overijssel/782-12c.jpg"/><marker nummer="783" name="De Zwaluw" address="Hasselt" lat="52.587032" lng="6.096943" type="Stellingmolen" foto1="overijssel/783a.jpg"/><marker nummer="784" name="De Hoop" address="Hellendoorn" lat="52.386250" lng="6.451766" type="Stellingmolen" foto1="overijssel/hellendoorn1.jpg"/><marker nummer="785" name="De Wippe / Molen van Fakkert" address="Hellendoorn" lat="52.393402" lng="6.447942" type="Stellingmolen" foto1="overijssel/785-AAA_8027b.jpg"/><marker nummer="786" name="D Olde Zwarver" address="Kampen" lat="52.545036" lng="5.927368" type="Stellingmolen" foto1="overijssel/786a.jpg"/><marker nummer="788" name="Oortmanmolen" address="Lattrop" lat="52.425400" lng="6.974577" type="Stellingmolen" foto1="overijssel/788-2-E-Blenke-(30-07-2009)b.jpg"/><marker nummer="789" name="De Leeuw" address="Lettele (Oude Molen)" lat="52.259918" lng="6.287350" type="Stellingmolen" foto1="overijssel/789=1311118976-1-rb.jpg"/><marker nummer="793" name="De Hoop / Molen van Buursink" address="Markelo" lat="52.232265" lng="6.496039" type="Stellingmolen" foto1="overijssel/793-1.jpg"/><marker nummer="794" name="De Vlijt" address="Marle" lat="52.407448" lng="6.127041" type="Stellingmolen" foto1="overijssel/794MarleDeVlijt-1.jpg"/><marker nummer="796" name="B&#xF6;kkers M&#xF6;lle" address="Olst" lat="52.342052" lng="6.107944" type="Stellingmolen" foto1="overijssel/796BokkersMolleOlst-a.jpg"/><marker nummer="798" name="De Konijnenbelt" address="Ommen" lat="52.517120" lng="6.420681" type="Stellingmolen" foto1="overijssel/798f.jpg"/><marker nummer="799" name="De Lelie" address="Ommen" lat="52.521873" lng="6.426008" type="Stellingmolen" foto1="overijssel/799aa.jpg"/><marker nummer="800" name="Den Oord" address="Ommen" lat="52.517765" lng="6.425263" type="Stellingmolen" foto1="overijssel/800aa-gepimpt.jpg"/><marker nummer="801" name="Molen Van Oude Hengel" address="Ootmarsum" lat="52.404930" lng="6.894905" type="Stellingmolen" foto1="overijssel/801DeOudeHengelOtmrsm-1.jpg"/><marker nummer="806" name="Pelmolen Ter Horst" address="Rijssen" lat="52.315205" lng="6.534467" type="Stellingmolen" foto1="overijssel/806a.jpg"/><marker nummer="812" name="Monnikenmolen" address="Sint Jansklooster" lat="52.676682" lng="5.996736" type="Stellingmolen" foto1="overijssel/812a.jpg "/><marker nummer="813" name="De Pionier" address="Slagharen" lat="52.625309" lng="6.559841" type="Stellingmolen" foto1="overijssel/813-1256290806-3d.jpg"/><marker nummer="818" name="De Vilsterse Molen" address="Vilsteren" lat="52.512177" lng="6.351415" type="Stellingmolen" foto1="overijssel/818a-gepimpt.jpg"/><marker nummer="819" name="Leemansmolen" address="Vriezenveen" lat="52.402878" lng="6.597695" type="Stellingmolen" foto1="overijssel/819-AAA_3219b.jpg"/><marker nummer="820" name="De Vier Winden / Weerselose Molen" address="Reutum (Weerselo)" lat="52.365540" lng="6.842729" type="Stellingmolen" foto1="overijssel/820aa.jpg"/><marker nummer="821" name="Houdt Braef Stant" address="Welsum" lat="52.337425" lng="6.092668" type="Stellingmolen" foto1="overijssel/HoudtBraefStantmetzeil.jpg"/><marker nummer="822" name="De Wijhese Molen" address="Wijhe" lat="52.385845" lng="6.135920" type="Stellingmolen" foto1="overijssel/822WijheseMolen-1.jpg"/><marker nummer="823" name="Windesheimer Molen" address="Windesheim" lat="52.451153" lng="6.131405" type="Stellingmolen" foto1="overijssel/823Windesheim-7.jpg"/><marker nummer="824" name="De Valk" address="Zalk" lat="52.520996" lng="6.006475" type="Stellingmolen" foto1="overijssel/824DeValkZalk-2.jpg"/><marker nummer="825" name="De Passiebloem" address="Zwolle" lat="52.518051" lng="6.116798" type="Stellingmolen" foto1="overijssel/825_1.png"/><marker nummer="831" name="Oog In 't Zeil" address="Cothen" lat="51.998260" lng="5.311250" type="Stellingmolen" foto1="utrecht/831_1.jpg"/><marker nummer="834" name="De Windotter" address="IJsselstein" lat="52.017700" lng="5.043054" type="Stellingmolen" foto1="utrecht/834DeWindotterIJsselstein.jpg"/><marker nummer="837" name="De Hoop" address="Loenen aan de Vecht" lat="52.210190" lng="5.027537" type="Stellingmolen" foto1="utrecht/837_1.jpg"/><marker nummer="839" name="De Valk" address="Montfoort" lat="52.042896" lng="4.946716" type="Stellingmolen" foto1="utrecht/839_1.jpg"/><marker nummer="845" name="Binnenmolen" address="Rhenen" lat="51.958683" lng="5.566906" type="Stellingmolen" foto1="utrecht/845a.jpg"/><marker nummer="847" name="De Ster" address="Utrecht" lat="52.089672" lng="5.100675" type="Stellingmolen" foto1="utrecht/847_1.png"/><marker nummer="848" name="Rijn en Zon" address="Utrecht" lat="52.099342" lng="5.115587" type="Stellingmolen" foto1="utrecht/848__1.jpg"/><marker nummer="849" name="De Nieuwe Molen" address="Veenendaal" lat="52.031837" lng="5.555018" type="Stellingmolen" foto1="utrecht/849_1.png"/><marker nummer="850" name="De Vriendschap" address="Veenendaal" lat="52.034176" lng="5.552272" type="Stellingmolen" foto1="utrecht/850_1.jpg"/><marker nummer="851" name="De Ruiter" address="Vreeland" lat="52.233856" lng="5.030962" type="Stellingmolen" foto1="utrecht/851DeRuiterVrlnd-11.jpg"/><marker nummer="853" name="Rijn en Weert" address="Werkhoven" lat="52.028217" lng="5.241316" type="Stellingmolen" foto1="utrecht/853=rijnenweert-rb.jpg"/><marker nummer="854" name="De Kraai" address="Westbroek" lat="52.147774" lng="5.125023" type="Stellingmolen" foto1="utrecht/854DeKraaiWestbroek-1.jpg"/><marker nummer="855" name="Rijn en Lek" address="Wijk bij Duurstede" lat="51.971470" lng="5.349438" type="Stellingmolen" foto1="utrecht/855RijnenLekWkbijDrstde-2.jpg"/><marker nummer="857" name="De Windhond" address="Woerden" lat="52.084305" lng="4.883194" type="Stellingmolen" foto1="utrecht/857DeWindhondWoerden-1.jpg"/><marker nummer="858" name="De Korenhalm" address="Gravenpolder, 's-" lat="51.454521" lng="3.898268" type="Stellingmolen" foto1="zeeland/858DeKorenhalmsGrvnpldr-1.jpg"/><marker nummer="861" name="Stadsmolen" address="Axel" lat="51.267914" lng="3.908453" type="Stellingmolen" foto1="zeeland/861_1.jpg"/><marker nummer="867" name="De Graanhalm" address="Burgh-Haamstede" lat="51.693665" lng="3.737948" type="Stellingmolen" foto1="zeeland/867_1.png"/><marker nummer="870" name="Nooit Gedacht / De Nieuwe Molen" address="Colijnsplaat" lat="51.599319" lng="3.843267" type="Stellingmolen" foto1="zeeland/870_1.jpg"/><marker nummer="873" name="Nooit Gedacht" address="Eindewege ('s Heer Arendskerke)" lat="51.499138" lng="3.813641" type="Stellingmolen" foto1="zeeland/eindewege.jpg"/><marker nummer="876" name="De Graanhalm" address="Gapinge" lat="51.546524" lng="3.629095" type="Stellingmolen" foto1="zeeland/876_2.jpg"/><marker nummer="877" name="De Koornbloem" address="Goes" lat="51.508694" lng="3.886136" type="Stellingmolen" foto1="zeeland/877_1.jpg"/><marker nummer="882" name="Windlust" address="Hoek" lat="51.309334" lng="3.777146" type="Stellingmolen" foto1="zeeland/882_1.jpg"/><marker nummer="883" name="De Stadsmolen" address="Hulst" lat="51.283524" lng="4.053022" type="Stellingmolen" foto1="zeeland/883StadsmolenHulst-1.jpg"/><marker nummer="884" name="De Witte Juffer" address="IJzendijke" lat="51.319748" lng="3.615384" type="Stellingmolen" foto1="zeeland/884_1.jpg"/><marker nummer="885" name="Oostmolen" address="Kloetinge" lat="51.497120" lng="3.921243" type="Stellingmolen" foto1="zeeland/885_1.jpg"/><marker nummer="886" name="De Lelie" address="Koudekerke" lat="51.481804" lng="3.562223" type="Stellingmolen" foto1="zeeland/886DeLelieKoudekerke-1.jpg"/><marker nummer="891" name="De Hoop" address="Middelburg" lat="51.494461" lng="3.607646" type="Stellingmolen" foto1="zeeland/891=1333916713-rb.jpg"/><marker nummer="892" name="De Koning" address="Middelburg" lat="51.505463" lng="3.627644" type="Stellingmolen" foto1="zeeland/892_1.jpg"/><marker nummer="893" name="De Seismolen" address="Middelburg" lat="51.499451" lng="3.603590" type="Stellingmolen" foto1="zeeland/893SeismolenMddlbrg-1.jpg"/><marker nummer="894" name="Ons Genoegen" address="Middelburg" lat="51.485332" lng="3.612064" type="Stellingmolen" foto1="zeeland/894OnsGenoegenMddlbrg-3.jpg"/><marker nummer="900" name="De Pere" address="Oost-Souburg" lat="51.464531" lng="3.596985" type="Stellingmolen" foto1="zeeland/900DePereOostSouburg-4.jpg"/><marker nummer="902" name="D'Arke" address="Oostkapelle" lat="51.567474" lng="3.556586" type="Stellingmolen" foto1="zeeland/902dArke-Oostkapelle-2.jpg"/><marker nummer="903" name="De Jager" address="Oud-Vossemeer" lat="51.579498" lng="4.191569" type="Stellingmolen" foto1="zeeland/903DeJagerO-Vssmr.jpg"/><marker nummer="905" name="De Korenaar" address="Poortvliet" lat="51.543396" lng="4.148275" type="Stellingmolen" foto1="zeeland/905_1.jpg"/><marker nummer="907" name="De Witte Molen" address="Rilland-Bath" lat="51.418266" lng="4.183853" type="Stellingmolen" foto1="zeeland/907DeWitteMolenRllndBth-1.jpg"/><marker nummer="909" name="De Korenbloem" address="Scherpenisse" lat="51.546471" lng="4.099444" type="Stellingmolen" foto1="zeeland/909_1.jpg"/><marker nummer="913" name="De Vier Winden" address="Sint-Annaland" lat="51.599510" lng="4.097881" type="Stellingmolen" foto1="zeeland/913_1.jpg"/><marker nummer="915" name="De Nijverheid" address="Sint Maartensdijk" lat="51.556324" lng="4.077649" type="Stellingmolen" foto1="zeeland/915DeNijverheidStMrtnsdijk-1.jpg"/><marker nummer="917" name="De Brak" address="Sluis" lat="51.305981" lng="3.388784" type="Stellingmolen" foto1="zeeland/917DeBrakSluis-1.jpg.jpg"/><marker nummer="920" name="De Hoop" address="Tholen" lat="51.532013" lng="4.216932" type="Stellingmolen" foto1="zeeland/920_1.jpg"/><marker nummer="921" name="De Koe" address="Veere" lat="51.549431" lng="3.661039" type="Stellingmolen" foto1="zeeland/921-1.jpg"/><marker nummer="922" name="Oranjemolen" address="Vlissingen" lat="51.440624" lng="3.580604" type="Stellingmolen" foto1="zeeland/922OranjemolenVlissingen-1.jpg"/><marker nummer="924" name="Aeolus" address="Wemeldinge" lat="51.513809" lng="4.001129" type="Stellingmolen" foto1="zeeland/924-1339587397-1.jpg"/><marker nummer="925" name="De Hoop" address="Wemeldinge" lat="51.514885" lng="4.002350" type="Stellingmolen" foto1="zeeland/925_1.jpg"/><marker nummer="926" name="De Noorman" address="Westkapelle" lat="51.529938" lng="3.441818" type="Stellingmolen" foto1="zeeland/926_1.jpg"/><marker nummer="927" name="De Onderneming" address="Wissenkerke" lat="51.585869" lng="3.750426" type="Stellingmolen" foto1="zeeland/927aa.jpg"/><marker nummer="928" name="De Hoop" address="Wolphaartsdijk" lat="51.529915" lng="3.816698" type="Stellingmolen" foto1="zeeland/Wolphaartsdijk-1.jpg"/><marker nummer="929" name="De Hoop" address="Zierikzee" lat="51.652153" lng="3.919897" type="Stellingmolen" foto1="zeeland/929__1.jpg"/><marker nummer="930" name="Den Haas" address="Zierikzee" lat="51.646828" lng="3.917642" type="Stellingmolen" foto1="zeeland/930DeHaasZrkzee-2.jpg"/><marker nummer="931" name="De Korenbloem" address="Zonnemaire" lat="51.716122" lng="3.953148" type="Stellingmolen" foto1="zeeland/931_1.jpg"/><marker nummer="934" name="'t Vliegend Hert" address="Gravendeel, 's-" lat="51.782623" lng="4.616376" type="Stellingmolen" foto1="zuidholland/934_4.jpg"/><marker nummer="937" name="(stellingmolen)" address="Gravenzande, 's-" lat="51.994476" lng="4.163336" type="Stellingmolen" foto1="zuidholland/937__1.jpg"/><marker nummer="938" name="De Morgenster" address="Aarlanderveen" lat="52.143669" lng="4.726703" type="Stellingmolen" foto1="zuidholland/938DeMorgensterArlndrvn-5.jpg"/><marker nummer="944" name="Windlust" address="Achthuizen" lat="51.688343" lng="4.282166" type="Stellingmolen" foto1="zuidholland/944WindlustAchthzn.jpg"/><marker nummer="947" name="De Eendracht" address="Alphen aan den Rijn" lat="52.119774" lng="4.670329" type="Stellingmolen" foto1="zuidholland/947DeEendrachtAadRijn-1.jpg"/><marker nummer="949" name="Jan van Arkel" address="Arkel" lat="51.867943" lng="4.995167" type="Stellingmolen" foto1="zuidholland/949JanvanArkel.jpg"/><marker nummer="951" name="Korenmolen De Haas" address="Benthuizen" lat="52.078442" lng="4.547489" type="Stellingmolen" foto1="zuidholland/DeHaasBenthuizen.jpg"/><marker nummer="952" name="Den Arend" address="Bergambacht" lat="51.936363" lng="4.780475" type="Stellingmolen" foto1="zuidholland/Bergambacht.jpg"/><marker nummer="954" name="De Vriendschap" address="Bleskensgraaf" lat="51.870159" lng="4.774195" type="Stellingmolen" foto1="zuidholland/954_1.jpg"/><marker nummer="957" name="De Arkduif" address="Bodegraven" lat="52.085682" lng="4.742120" type="Stellingmolen" foto1="zuidholland/957Arkduif-1.jpg"/><marker nummer="959" name="De Roos" address="Delft" lat="52.013996" lng="4.351280" type="Stellingmolen" foto1="zuidholland/959_TK_1.jpg"/><marker nummer="961" name="De Eendracht" address="Dirksland" lat="51.749489" lng="4.092036" type="Stellingmolen" foto1="zuidholland/961_1.png"/><marker nummer="962" name="Kyck Over Den Dyck" address="Dordrecht" lat="51.815754" lng="4.678911" type="Stellingmolen" foto1="zuidholland/962KyckOverDenDyck-1.jpg"/><marker nummer="963" name="Bernissemolen" address="Geervliet" lat="51.859375" lng="4.257282" type="Stellingmolen" foto1="zuidholland/963_1.jpg"/><marker nummer="966" name="De Hoop" address="Gorinchem" lat="51.827988" lng="4.981821" type="Stellingmolen" foto1="zuidholland/966DeHoopGrnchm-1.jpg"/><marker nummer="967" name="Nooit Volmaakt" address="Gorinchem" lat="51.833103" lng="4.976944" type="Stellingmolen" foto1="zuidholland/967_1.png"/><marker nummer="970" name="'t Slot" address="Gouda" lat="52.007385" lng="4.715035" type="Stellingmolen" foto1="zuidholland/tSlotGouda.jpg"/><marker nummer="971" name="De Roode Leeuw" address="Gouda" lat="52.007648" lng="4.707662" type="Stellingmolen" foto1="zuidholland/971RoodeLeeuwGouda-1.jpg"/><marker nummer="972" name="Haastrechtse Molen / Poldermolen Beneden Haastrecht" address="Gouda" lat="52.006756" lng="4.737096" type="Stellingmolen" foto1="zuidholland/972HaasdrechtseMolenGouda-1.jpg"/><marker nummer="982" name="Nieuw Leven" address="Hazerswoude-Dorp" lat="52.096375" lng="4.586191" type="Stellingmolen" foto1="zuidholland/982_1.png"/><marker nummer="988" name="De Hoop" address="Hellevoetsluis" lat="51.824345" lng="4.127370" type="Stellingmolen" foto1="zuidholland/988_1.jpg"/><marker nummer="991" name="De Nieuwlandse Molen" address="Hoek van Holland" lat="51.984673" lng="4.148419" type="Stellingmolen" foto1="zuidholland/991_1.jpg"/><marker nummer="999" name="De Geregtigheid" address="Katwijk aan den Rijn " lat="52.190361" lng="4.423410" type="Stellingmolen" foto1="zuidholland/999GeregtigheidKatwijk-aZ-7.jpg"/><marker nummer="1020" name="De Lelie" address="Rotterdam-Kralingen" lat="51.932426" lng="4.521764" type="Stellingmolen" foto1="zuidholland/1020=lelie-rb.jpg"/><marker nummer="1021" name="De Ster" address="Rotterdam-Kralingen" lat="51.931633" lng="4.521299" type="Stellingmolen" foto1="zuidholland/1021=de-ster-rb.jpg"/><marker nummer="1022" name="Onverwacht/ Schelvenaer" address="Krimpen aan den IJssel" lat="51.923923" lng="4.596057" type="Stellingmolen" foto1="zuidholland/1022a.jpg"/><marker nummer="1025" name="d'Heesterboom" address="Leiden" lat="52.156769" lng="4.472610" type="Stellingmolen" foto1="zuidholland/1025_1.jpg"/><marker nummer="1026" name="De Herder" address="Leiden" lat="52.173508" lng="4.489182" type="Stellingmolen" foto1="zuidholland/1026DeHerderLdn-draaiend.jpg"/><marker nummer="1028" name="De Valk" address="Leiden" lat="52.164505" lng="4.486264" type="Stellingmolen" foto1="zuidholland/1028DeValkLeiden-6.jpg"/><marker nummer="1040" name="De Salamander" address="Leidschendam" lat="52.082935" lng="4.402017" type="Stellingmolen" foto1="zuidholland/1040DeSalamanderLeidschendam-a.jpg"/><marker nummer="1045" name="Keukenhofmolen" address="Lisse" lat="52.272594" lng="4.549481" type="Stellingmolen" foto1="zuidholland/Keukenhofmolen.jpg"/><marker nummer="1049" name="De Korenaer / Prins Maurits" address="Den Haag-Loosduinen" lat="52.050285" lng="4.236064" type="Stellingmolen" foto1="zuidholland/KorenaerLoosduinen.jpg"/><marker nummer="1050" name="De Hoop" address="Maasdam" lat="51.782219" lng="4.553385" type="Stellingmolen" foto1="zuidholland/1050_1.jpg"/><marker nummer="1054" name="De Hoop" address="Maassluis" lat="51.918861" lng="4.256892" type="Stellingmolen" foto1="zuidholland/1054DeHoopMssls-4.jpg"/><marker nummer="1062" name="De Vier Winden" address="Monster" lat="52.030361" lng="4.178444" type="Stellingmolen" foto1="zuidholland/1062DVWMonster.jpg"/><marker nummer="1071" name="Windlust" address="Nootdorp" lat="52.037170" lng="4.403710" type="Stellingmolen" foto1="zuidholland/1071WindlustNtdrp-1a.jpg"/><marker nummer="1077" name="De Hoop" address="Oud-Alblas" lat="51.860081" lng="4.731753" type="Stellingmolen" foto1="zuidholland/1077_1.png"/><marker nummer="1080" name="De Hoop" address="Ouddorp" lat="51.812351" lng="3.933060" type="Stellingmolen" foto1="zuidholland/1080_1.png"/><marker nummer="1081" name="De Zwaan" address="Ouddorp" lat="51.806942" lng="3.929681" type="Stellingmolen" foto1="zuidholland/1081DeZwaanOuddorp-1.jpg"/><marker nummer="1085" name="De Speelman" address="Rotterdam-Overschie" lat="51.938580" lng="4.444030" type="Stellingmolen" foto1="zuidholland/1085_3.png"/><marker nummer="1089" name="Dekkermolen" address="Hoogmade" lat="52.165302" lng="4.564798" type="Stellingmolen" foto1="zuidholland/1089_1.jpg"/><marker nummer="1102" name="De Distilleerketel" address="Rotterdam-Delfshaven" lat="51.905144" lng="4.448743" type="Stellingmolen" foto1="zuidholland/1102-distilleerketel05b.jpg"/><marker nummer="1103" name="De Zandweg" address="Rotterdam-Charlois" lat="51.883457" lng="4.467468" type="Stellingmolen" foto1="zuidholland/1103a.jpg"/><marker nummer="1104" name="De Hoop" address="Rozenburg" lat="51.904427" lng="4.248869" type="Stellingmolen" foto1="zuidholland/1104_1.jpg"/><marker nummer="1105" name="De Drie Koornbloemen" address="Schiedam" lat="51.917698" lng="4.392691" type="Stellingmolen" foto1="zuidholland/1105Schdm-DeDrieKoornbloemen-1.jpg"/><marker nummer="1106" name="De Nieuwe Palmboom" address="Schiedam" lat="51.920757" lng="4.398685" type="Stellingmolen" foto1="zuidholland/1106_1.png"/><marker nummer="1107" name="De Noord" address="Schiedam" lat="51.920528" lng="4.397018" type="Stellingmolen" foto1="zuidholland/1107a.jpg"/><marker nummer="1108" name="De Vrijheid" address="Schiedam" lat="51.919739" lng="4.394753" type="Stellingmolen" foto1="zuidholland/1108_1.png"/><marker nummer="1109" name="De Walvisch" address="Schiedam" lat="51.915676" lng="4.395192" type="Stellingmolen" foto1="zuidholland/1109a.jpg"/><marker nummer="1112" name="De Korenbloem" address="Sommelsdijk" lat="51.761478" lng="4.149290" type="Stellingmolen" foto1="zuidholland/1112=de-korenbloem-rb.jpg"/><marker nummer="1113" name="Nooit Gedacht" address="Spijkenisse" lat="51.852802" lng="4.330344" type="Stellingmolen" foto1="zuidholland/SpijkenisseNG.jpg"/><marker nummer="1115" name="Korenlust" address="Stellendam" lat="51.806286" lng="4.030863" type="Stellingmolen" foto1="zuidholland/1115_3.png"/><marker nummer="1118" name="De Liefde &lt;br&gt;(In liefde draaiende)" address="Streefkerk" lat="51.909424" lng="4.755682" type="Stellingmolen" foto1="zuidholland/1118_1.jpg"/><marker nummer="1121" name="De Vier Winden" address="Rotterdam-Terbregge" lat="51.953609" lng="4.515260" type="Stellingmolen" foto1="zuidholland/1121De4WindenTerbregge-1.jpg"/><marker nummer="1122" name="Aeolus" address="Vlaardingen" lat="51.915607" lng="4.345554" type="Stellingmolen" foto1="zuidholland/1122AeolusVlrdngn-1.jpg"/><marker nummer="1135" name="Windlust" address="Wassenaar" lat="52.142052" lng="4.395337" type="Stellingmolen" foto1="zuidholland/1135WindlustWssnr-5.jpg"/><marker nummer="1137" name="Windlust" address="Wateringen" lat="52.022804" lng="4.272279" type="Stellingmolen" foto1="zuidholland/1137w-gepimpt.jpg"/><marker nummer="1138" name="Windlust" address="Westmaas" lat="51.788574" lng="4.471389" type="Stellingmolen" foto1="zuidholland/1138WestmaasWindlust-1.jpg"/><marker nummer="1145" name="De Hoop" address="Zoetermeer" lat="52.053169" lng="4.497779" type="Stellingmolen" foto1="zuidholland/1145-de-hoop10b.jpg"/><marker nummer="1151" name="De Arend" address="Zuidland" lat="51.819702" lng="4.266110" type="Stellingmolen" foto1="zuidholland/1151_1.jpg"/><marker nummer="1155" name="Molen van Sloten" address="Amsterdam-Sloten" lat="52.341568" lng="4.792259" type="Stellingmolen" foto1="noordholland/slotenBB.jpg"/><marker nummer="1157" name="De Windjager" address="Oostzaan" lat="52.464344" lng="4.851852" type="Stellingmolen" foto1="noordholland/1157a.jpg"/><marker nummer="1162" name="Het Klaverblad" address="Zaandam" lat="52.477585" lng="4.813863" type="Stellingmolen" foto1="noordholland/1162HetKlaverblad-Zndm-4.jpg"/><marker nummer="1163" name="De Adriaan" address="Haarlem" lat="52.383808" lng="4.642723" type="Stellingmolen" foto1="noordholland/1163_01.png"/><marker nummer="1187" name="De Twee Gebroeders" address="Wijk en Aalburg" lat="51.756031" lng="5.134527" type="Stellingmolen" foto1="noordbrabant/1187a.jpg"/><marker nummer="1226" name="De Vlijt" address="Meppel" lat="52.695572" lng="6.186254" type="Stellingmolen" foto1="drenthe/1226DeVlijtMeppel-1.jpg"/><marker nummer="1232" name="Leonide" address="Anna Paulowna" lat="52.855862" lng="4.834355" type="Stellingmolen" foto1="noordholland/1232a.jpg"/><marker nummer="1234" name="Borgelinkmolen" address="Denekamp" lat="52.382118" lng="6.999880" type="Stellingmolen" foto1="overijssel/1234.jpg"/><marker nummer="1235" name="De Zwaluw" address="Kesteren" lat="51.937305" lng="5.594813" type="Stellingmolen" foto1="gelderland/1235-Kesteren(14-05-2010)b.jpg"/><marker nummer="1277" name="Windlust" address="Nieuwerkerk aan den IJssel" lat="51.969193" lng="4.628657" type="Stellingmolen" foto1="zuidholland/1277WindlustNwrkrkadIJssl-1.jpg"/><marker nummer="1280" name="Noletmolen" address="Schiedam" lat="51.907574" lng="4.408436" type="Stellingmolen" foto1="zuidholland/1280NoletmolenSchdm-1.jpg"/><marker nummer="1283" name="De Oude Molen" address="Fijnaart" lat="51.648643" lng="4.464712" type="Stellingmolen" foto1="noordbrabant/1283_1.jpg"/><marker nummer="1284" name="De Widde Meuln" address="Ten Boer" lat="53.272572" lng="6.698608" type="Stellingmolen" foto1="groningen/1284_11.png"/><marker nummer="1287" name="De Hoop / De Beijenkorf" address="Maurik" lat="51.966084" lng="5.427130" type="Stellingmolen" foto1="gelderland/1287DeBijenkorf-Maurik-1.jpg"/><marker nummer="1290" name="Het Jonge Schaap" address="Zaandam" lat="52.476151" lng="4.816531" type="Stellingmolen" foto1="noordholland/1290HetJongeSchaap-staatsie.jpg"/><marker nummer="1293" name="De Vijf Gebroeders" address="Heinkenszand" lat="51.475197" lng="3.808524" type="Stellingmolen" foto1="zeeland/1293DeVijfGebroedersHnknsznd-1.jpg"/><marker nummer="1296" name="Molen van Piet" address="Tuitjenhorn" lat="52.737309" lng="4.743087" type="Stellingmolen" foto1="noordholland/1296a.jpg"/><marker nummer="1300" name="De Windhond" address="Soest" lat="52.171486" lng="5.305416" type="Stellingmolen" foto1="utrecht/1300DeWindhondSst.jpg"/><marker nummer="1302" name="Concordia" address="Ede" lat="52.046906" lng="5.665818" type="Stellingmolen" foto1="gelderland/1302ConcordiaEde-1a.jpg"/><marker nummer="1303" name="De Corneliszoon" address="Uitgeest" lat="52.529331" lng="4.731388" type="Stellingmolen" foto1="noordholland/UitgeestCornelisz1.jpg"/><marker nummer="1305" name="Kilsdonkse Molen" address="Heeswijk-Dinther" lat="51.637356" lng="5.504425" type="Stellingmolen" foto1="noordbrabant/1305KilsdonkseMolen-1.jpg"/><marker nummer="1307" name="Molen Hunsingo" address="Onderdendam" lat="53.334892" lng="6.590567" type="Stellingmolen" foto1="groningen/1307a.jpg"/><marker nummer="1309" name="Molen Massier" address="Dalfsen" lat="52.566235" lng="6.270163" type="Stellingmolen" foto1="overijssel/1309=1311119138-1-rb.jpg"/><marker nummer="1311" name="De Koe" address="Ermelo" lat="52.301094" lng="5.628986" type="Stellingmolen" foto1="gelderland/1311_1.png"/><marker nummer="1312" name="De Hoop" address="Bunschoten" lat="52.242912" lng="5.373045" type="Stellingmolen" foto1="utrecht/1312=dehoop-rb.jpg"/><marker nummer="1313" name="De Gouden Engel" address="Alkmaar-Koedijk" lat="52.666828" lng="4.750994" type="Stellingmolen" foto1="noordholland/1313-goudenengel05.jpg"/><marker nummer="1314" name="De Verwachting" address="Tholen" lat="51.530518" lng="4.219464" type="Stellingmolen" foto1="zeeland/1314DeVerwachtingTholen.jpg"/><marker nummer="1316" name="(stellingmolen)" address="Dreumel" lat="51.851849" lng="5.432384" type="Stellingmolen" foto1="gelderland/1316stellingmolenDreumel-1.jpg"/><marker nummer="1320" name="Entreprise" address="Kolham" lat="53.182137" lng="6.734582" type="Stellingmolen" foto1="groningen/1320Entreprise-1.jpg"/><marker nummer="1323" name="De Volharding / Molen van Den Otter" address="Best" lat="51.509521" lng="5.394720" type="Stellingmolen" foto1="noordbrabant/1323_1.jpg"/><marker nummer="1324" name="(stellingmolen)" address="Maasbommel" lat="51.838413" lng="5.545691" type="Stellingmolen" foto1="gelderland/1324_1.jpg"/><marker nummer="1327" name="De Kameel" address="Schiedam" lat="51.919514" lng="4.401271" type="Stellingmolen" foto1="zuidholland/1327DeKameelSchdm-1.jpg"/><marker nummer="1328" name="De Korenbloem" address="Kortgene" lat="51.561775" lng="3.802110" type="Stellingmolen" foto1="zeeland/1328=1317478272-rb.jpg"/><marker nummer="1330" name="Molen Fakkert" address="Hoonhorst" lat="52.486473" lng="6.228610" type="Stellingmolen" foto1="overijssel/1330MolenFakkertHnhrst-7.jpg"/><marker nummer="1332" name="Geesina" address="Groenekan" lat="52.126423" lng="5.140891" type="Stellingmolen" foto1="utrecht/1332GeesinaGroenekan-4.jpg"/><marker nummer="1334" name="De Hoop" address="'t Zand" lat="52.835995" lng="4.748505" type="Stellingmolen" foto1="noordholland/1334=1335821558-1.jpg"/><marker nummer="1335" name="Babbersmolen" address="Schiedam" lat="51.917248" lng="4.373774" type="Stellingmolen" foto1="zuidholland/1335__1.png"/><marker nummer="1338" name="De Renkumse Molen (vh. De Hoop)" address="Renkum" lat="51.974964" lng="5.729743" type="Stellingmolen" foto1="gelderland/1338DeHoopRnkm-3.jpg"/><marker nummer="1340" name="Windlust" address="Burum" lat="53.274212" lng="6.231937" type="Stellingmolen" foto1="friesland/1340_1.jpg"/><marker nummer="1346" name="Puurveense Molen" address="Kootwijkerbroek" lat="52.147430" lng="5.664707" type="Stellingmolen" foto1="gelderland/1346_1.jpg"/><marker nummer="1353" name="De Paauw" address="Assendelft" lat="52.441635" lng="4.753481" type="Stellingmolen" foto1="noordholland/1353_01.png"/></markers>

